              [ {
		    		"Campus": "Albury-Wodonga",
		    		"Location": "Building 3, Room 3107",
		    		"Latitude": "-36.111084",
		    		"Longitude": "146.849930"
		    	},
		    	{
		    		"Campus": "Albury-Wodonga",
		    		"Location": "Building 3, Room 3107",
		    		"Latitude": "-36.111084",
		    		"Longitude": "146.849930"
		    	},
		    	{
		    		"Campus": "Albury-Wodonga",
		    		"Location": "Building 6, Room 6101",
		    		"Latitude": "-36.111573",
		    		"Longitude": "146.849023"
		    	},
		    	{
		    		"Campus": "Albury-Wodonga",
		    		"Location": "Building 3, Room 3105",
		    		"Latitude": "-36.111084",
		    		"Longitude": "146.849930"
		    	},
		    	{
		    		"Campus": "Albury-Wodonga",
		    		"Location": "Building 3, Room 3107",
		    		"Latitude": "-36.111084",
		    		"Longitude": "146.849930"
		    	},
		    	{
		    		"Campus": "Albury-Wodonga",
		    		"Location": "Building 3, Room 3105",
		    		"Latitude": "-36.111084",
		    		"Longitude": "146.849930"
		    	},
		    	{
		    		"Campus": "Albury-Wodonga",
		    		"Location": "Building 3, Room 3107",
		    		"Latitude": "-36.111084",
		    		"Longitude": "146.849930"
		    	},
		    	{
		    		"Campus": "Albury-Wodonga",
		    		"Location": "Building 3, Room 3107",
		    		"Latitude": "-36.111084",
		    		"Longitude": "146.849930"
		    	},
		    	{
		    		"Campus": "Albury-Wodonga",
		    		"Location": "Building 3, Room 3105",
		    		"Latitude": "-36.111084",
		    		"Longitude": "146.849930"
		    	},
		    	{
		    		"Campus": "Albury-Wodonga",
		    		"Location": "Building 3, Room 3105",
		    		"Latitude": "-36.111084",
		    		"Longitude": "146.849930"
		    	},
		    	{
		    		"Campus": "Albury-Wodonga",
		    		"Location": "Building 3, Room 3107",
		    		"Latitude": "-36.111084",
		    		"Longitude": "146.849930"
		    	},
		    	{
		    		"Campus": "Albury-Wodonga",
		    		"Location": "Building 3, Room 3105",
		    		"Latitude": "-36.111084",
		    		"Longitude": "146.849930"
		    	},
		    	{
		    		"Campus": "Albury-Wodonga",
		    		"Location": "Building 3, Room 3107",
		    		"Latitude": "-36.111084",
		    		"Longitude": "146.849930"
		    	},
		    	{
		    		"Campus": "Albury-Wodonga",
		    		"Location": "Building 4, Room 4101",
		    		"Latitude": "-36.111573",
		    		"Longitude": "146.849023"
		    	},
		    	{
		    		"Campus": "Albury-Wodonga",
		    		"Location": "Building 6, Room 6101",
		    		"Latitude": "-36.111573",
		    		"Longitude": "146.849023"
		    	},
		    	{
		    		"Campus": "Albury-Wodonga",
		    		"Location": "Building 6, Room 6101",
		    		"Latitude": "-36.111573",
		    		"Longitude": "146.849023"
		    	},
		    	{
		    		"Campus": "Albury-Wodonga",
		    		"Location": "Building 4, Room 4101",
		    		"Latitude": "-36.111573",
		    		"Longitude": "146.849023"
		    	},
		    	{
		    		"Campus": "Albury-Wodonga",
		    		"Location": "Building 6, Room 6101",
		    		"Latitude": "-36.111573",
		    		"Longitude": "146.849023"
		    	},
		    	{
		    		"Campus": "Albury-Wodonga",
		    		"Location": "Building 4, Room 4101",
		    		"Latitude": "-36.111573",
		    		"Longitude": "146.849023"
		    	},
		    	{
		    		"Campus": "Albury-Wodonga",
		    		"Location": "Building 6, Room 6101",
		    		"Latitude": "-36.111573",
		    		"Longitude": "146.849023"
		    	},
		    	{
		    		"Campus": "Albury-Wodonga",
		    		"Location": "Building 4, Room 4101",
		    		"Latitude": "-36.111573",
		    		"Longitude": "146.849023"
		    	},
		    	{
		    		"Campus": "Albury-Wodonga",
		    		"Location": "Building 4, Room 4101",
		    		"Latitude": "-36.111573",
		    		"Longitude": "146.849023"
		    	},
		    	{
		    		"Campus": "Albury-Wodonga",
		    		"Location": "Building 4, Room 4101",
		    		"Latitude": "-36.111573",
		    		"Longitude": "146.849023"
		    	},
		    	{
		    		"Campus": "Albury-Wodonga",
		    		"Location": "Building 6, Room 6101",
		    		"Latitude": "-36.111573",
		    		"Longitude": "146.849023"
		    	},
		    	{
		    		"Campus": "Albury-Wodonga",
		    		"Location": "Building 6, Room 6101",
		    		"Latitude": "-36.111573",
		    		"Longitude": "146.849023"
		    	},
		    	{
		    		"Campus": "Albury-Wodonga",
		    		"Location": "Building 6, Room 6101",
		    		"Latitude": "-36.111573",
		    		"Longitude": "146.849023"
		    	},
		    	{
		    		"Campus": "Albury-Wodonga",
		    		"Location": "Building 4, Room 4101",
		    		"Latitude": "-36.111573",
		    		"Longitude": "146.849023"
		    	},
		    	{
		    		"Campus": "Bendigo",
		    		"Location": "Circular Lecture Theatre",
		    		"Latitude": "-36.779038",
		    		"Longitude": "144.300224"
		    	},
		    	{
		    		"Campus": "Bendigo",
		    		"Location": "Circular Lecture Theatre",
		    		"Latitude": "-36.779038",
		    		"Longitude": "144.300224"
		    	},
		    	{
		    		"Campus": "Bendigo",
		    		"Location": "McKay Lecture Theatre",
		    		"Latitude": "-36.779360",
		    		"Longitude": "144.299508"
		    	},
		    	{
		    		"Campus": "Bendigo",
		    		"Location": "Eng 206",
		    		"Latitude": "-36.778939",
		    		"Longitude": "144.297738"
		    	},
		    	{
		    		"Campus": "Bendigo",
		    		"Location": "McKay Lecture Theatre",
		    		"Latitude": "-36.779360",
		    		"Longitude": "144.299508"
		    	},
		    	{
		    		"Campus": "Bendigo",
		    		"Location": "Circular Lecture Theatre",
		    		"Latitude": "-36.779038",
		    		"Longitude": "144.300224"
		    	},
		    	{
		    		"Campus": "Bendigo",
		    		"Location": "Circular Lecture Theatre",
		    		"Latitude": "-36.779038",
		    		"Longitude": "144.300224"
		    	},
		    	{
		    		"Campus": "Bendigo",
		    		"Location": "McKay Lecture Theatre",
		    		"Latitude": "-36.779360",
		    		"Longitude": "144.299508"
		    	},
		    	{
		    		"Campus": "Bendigo",
		    		"Location": "Circular Lecture Theatre",
		    		"Latitude": "-36.779038",
		    		"Longitude": "144.300224"
		    	},
		    	{
		    		"Campus": "Bendigo",
		    		"Location": "Circular Lecture Theatre",
		    		"Latitude": "-36.779038",
		    		"Longitude": "144.300224"
		    	},
		    	{
		    		"Campus": "Bendigo",
		    		"Location": "McKay Lecture Theatre",
		    		"Latitude": "-36.779360",
		    		"Longitude": "144.299508"
		    	},
		    	{
		    		"Campus": "Bendigo",
		    		"Location": "Circular Lecture Theatre",
		    		"Latitude": "-36.779038",
		    		"Longitude": "144.300224"
		    	},
		    	{
		    		"Campus": "Bendigo",
		    		"Location": "Circular Lecture Theatre",
		    		"Latitude": "-36.779038",
		    		"Longitude": "144.300224"
		    	},
		    	{
		    		"Campus": "Bendigo",
		    		"Location": "McKay Lecture Theatre",
		    		"Latitude": "-36.779360",
		    		"Longitude": "144.299508"
		    	},
		    	{
		    		"Campus": "Bendigo",
		    		"Location": "McKay Lecture Theatre",
		    		"Latitude": "-36.779360",
		    		"Longitude": "144.299508"
		    	},
		    	{
		    		"Campus": "Bendigo",
		    		"Location": "Visual Arts, Room 2.17",
		    		"Latitude": "-36.779726",
		    		"Longitude": "144.299701"
		    	},
		    	{
		    		"Campus": "Bendigo",
		    		"Location": "Visual Arts, Room 2.17",
		    		"Latitude": "-36.779726",
		    		"Longitude": "144.299701"
		    	},
		    	{
		    		"Campus": "Bendigo",
		    		"Location": "Arts, Room 3.10",
		    		"Latitude": "-36.779614",
		    		"Longitude": "144.300538"
		    	},
		    	{
		    		"Campus": "Bendigo",
		    		"Location": "Visual Arts, Room 2.17",
		    		"Latitude": "-36.779726",
		    		"Longitude": "144.299701"
		    	},
		    	{
		    		"Campus": "Bendigo",
		    		"Location": "Arts, Room 3.10",
		    		"Latitude": "-36.779614",
		    		"Longitude": "144.300538"
		    	},
		    	{
		    		"Campus": "Bendigo",
		    		"Location": "Visual Arts, Room 2.17",
		    		"Latitude": "-36.779726",
		    		"Longitude": "144.299701"
		    	},
		    	{
		    		"Campus": "Bendigo",
		    		"Location": "Graphic Design Lab",
		    		"Latitude": "-36.779279",
		    		"Longitude": "144.299948"
		    	},
		    	{
		    		"Campus": "Bendigo",
		    		"Location": "Arts, Room 3.03",
		    		"Latitude": "-36.779614",
		    		"Longitude": "144.300538"
		    	},
		    	{
		    		"Campus": "Bendigo",
		    		"Location": "Business, Room 1.30",
		    		"Latitude": "-36.779408",
		    		"Longitude": "144.300705"
		    	},
		    	{
		    		"Campus": "Bendigo",
		    		"Location": "Business, Room 2.30",
		    		"Latitude": "-36.779824",
		    		"Longitude": "144.302239"
		    	},
		    	{
		    		"Campus": "Bendigo",
		    		"Location": "Education (Room 2.39)",
		    		"Latitude": "-36.778939",
		    		"Longitude": "144.297738"
		    	},
		    	{
		    		"Campus": "Bendigo",
		    		"Location": "Ironbark Centre (Room 1.02)",
		    		"Latitude": "-36.780465",
		    		"Longitude": "144.301102"
		    	},
		    	{
		    		"Campus": "Bendigo",
		    		"Location": "Education (Room 2.39)",
		    		"Latitude": "-36.778939",
		    		"Longitude": "144.297738"
		    	},
		    	{
		    		"Campus": "Bendigo",
		    		"Location": "Education (Room 2.22)",
		    		"Latitude": "-36.780056",
		    		"Longitude": "144.301000"
		    	},
		    	{
		    		"Campus": "Bendigo",
		    		"Location": "Ironbark Centre (Room 1.02)",
		    		"Latitude": "-36.780465",
		    		"Longitude": "144.301102"
		    	},
		    	{
		    		"Campus": "Bendigo",
		    		"Location": "Education (Room 2.39)",
		    		"Latitude": "-36.778939",
		    		"Longitude": "144.297738"
		    	},
		    	{
		    		"Campus": "Bendigo",
		    		"Location": "Ironbark Centre (Room 1.02)",
		    		"Latitude": "-36.780465",
		    		"Longitude": "144.301102"
		    	},
		    	{
		    		"Campus": "Bendigo",
		    		"Location": "Education (Room 2.39)",
		    		"Latitude": "-36.778939",
		    		"Longitude": "144.297738"
		    	},
		    	{
		    		"Campus": "Bendigo",
		    		"Location": "Education (Room 2.22)",
		    		"Latitude": "-36.780056",
		    		"Longitude": "144.301000"
		    	},
		    	{
		    		"Campus": "Bendigo",
		    		"Location": "Ironbark Centre (Room 1.02)",
		    		"Latitude": "-36.780465",
		    		"Longitude": "144.301102"
		    	},
		    	{
		    		"Campus": "Bendigo",
		    		"Location": "Education (Room 2.39)",
		    		"Latitude": "-36.778939",
		    		"Longitude": "144.297738"
		    	},
		    	{
		    		"Campus": "Bendigo",
		    		"Location": "Ironbark Centre (Room 1.02)",
		    		"Latitude": "-36.780465",
		    		"Longitude": "144.301102"
		    	},
		    	{
		    		"Campus": "Bendigo",
		    		"Location": "HHS 2 251",
		    		"Latitude": "-36.779777",
		    		"Longitude": "144.298924"
		    	},
		    	{
		    		"Campus": "Bendigo",
		    		"Location": "HHS 2 251",
		    		"Latitude": "-36.779777",
		    		"Longitude": "144.298924"
		    	},
		    	{
		    		"Campus": "Bendigo",
		    		"Location": "McKay Lecture Theatre",
		    		"Latitude": "-36.779360",
		    		"Longitude": "144.299508"
		    	},
		    	{
		    		"Campus": "Bendigo",
		    		"Location": "HHS 2 251",
		    		"Latitude": "-36.779777",
		    		"Longitude": "144.298924"
		    	},
		    	{
		    		"Campus": "Bendigo",
		    		"Location": "HHS 2 251",
		    		"Latitude": "-36.779777",
		    		"Longitude": "144.298924"
		    	},
		    	{
		    		"Campus": "Bendigo",
		    		"Location": "HHS 2 251",
		    		"Latitude": "-36.779777",
		    		"Longitude": "144.298924"
		    	},
		    	{
		    		"Campus": "Bendigo",
		    		"Location": "McKay Lecture Theatre",
		    		"Latitude": "-36.779360",
		    		"Longitude": "144.299508"
		    	},
		    	{
		    		"Campus": "Bendigo",
		    		"Location": "HHS 2 251",
		    		"Latitude": "-36.779777",
		    		"Longitude": "144.298924"
		    	},
		    	{
		    		"Campus": "Bendigo",
		    		"Location": "HHS 2 251",
		    		"Latitude": "-36.779777",
		    		"Longitude": "144.298924"
		    	},
		    	{
		    		"Campus": "Bendigo",
		    		"Location": "McKay Lecture Theatre",
		    		"Latitude": "-36.779360",
		    		"Longitude": "144.299508"
		    	},
		    	{
		    		"Campus": "Bendigo",
		    		"Location": "HHS 2 251",
		    		"Latitude": "-36.779777",
		    		"Longitude": "144.298924"
		    	},
		    	{
		    		"Campus": "Bendigo",
		    		"Location": "Circular Lecture Theatre",
		    		"Latitude": "-36.779038",
		    		"Longitude": "144.300224"
		    	},
		    	{
		    		"Campus": "Bendigo",
		    		"Location": "Eng Room 2.14",
		    		"Latitude": "-36.778939",
		    		"Longitude": "144.297738"
		    	},
		    	{
		    		"Campus": "Bendigo",
		    		"Location": "Eng Room 2.14",
		    		"Latitude": "-36.778939",
		    		"Longitude": "144.297738"
		    	},
		    	{
		    		"Campus": "Bendigo",
		    		"Location": "Business, Room 2.30",
		    		"Latitude": "-36.779824",
		    		"Longitude": "144.302239"
		    	},
		    	{
		    		"Campus": "Bendigo",
		    		"Location": "Business, Room 1.30",
		    		"Latitude": "-36.779816",
		    		"Longitude": "144.302287"
		    	},
		    	{
		    		"Campus": "Bendigo",
		    		"Location": "Business, Room 2.30",
		    		"Latitude": "-36.779824",
		    		"Longitude": "144.302239"
		    	},
		    	{
		    		"Campus": "Bendigo",
		    		"Location": "Business, Room 1.30",
		    		"Latitude": "-36.779816",
		    		"Longitude": "144.302287"
		    	},
		    	{
		    		"Campus": "Bendigo",
		    		"Location": "Business, Room 1.30",
		    		"Latitude": "-36.779816",
		    		"Longitude": "144.302287"
		    	},
		    	{
		    		"Campus": "Bendigo",
		    		"Location": "Business, Room 2.30",
		    		"Latitude": "-36.779824",
		    		"Longitude": "144.302239"
		    	},
		    	{
		    		"Campus": "Bendigo",
		    		"Location": "Business, Room 1.30",
		    		"Latitude": "-36.779816",
		    		"Longitude": "144.302287"
		    	},
		    	{
		    		"Campus": "Bendigo",
		    		"Location": "Business, Room 2.30",
		    		"Latitude": "-36.779824",
		    		"Longitude": "144.302239"
		    	},
		    	{
		    		"Campus": "Bendigo",
		    		"Location": "Eng Room 2.14",
		    		"Latitude": "-36.778939",
		    		"Longitude": "144.297738"
		    	},
		    	{
		    		"Campus": "Bendigo",
		    		"Location": "Eng Room 2.14",
		    		"Latitude": "-36.778939",
		    		"Longitude": "144.297738"
		    	},
		    	{
		    		"Campus": "Bendigo",
		    		"Location": "Eng Room 2.14",
		    		"Latitude": "-36.778939",
		    		"Longitude": "144.297738"
		    	},
		    	{
		    		"Campus": "Melbourne",
		    		"Location": "Agora Theatre",
		    		"Latitude": "-37.721022",
		    		"Longitude": "145.048395"
		    	},
		    	{
		    		"Campus": "Melbourne",
		    		"Location": "Agora Cinema",
		    		"Latitude": "-37.721022",
		    		"Longitude": "145.048395"
		    	},
		    	{
		    		"Campus": "Melbourne",
		    		"Location": "Agora Theatre",
		    		"Latitude": "-37.721022",
		    		"Longitude": "145.048395"
		    	},
		    	{
		    		"Campus": "Melbourne",
		    		"Location": "Agora Cinema",
		    		"Latitude": "-37.721022",
		    		"Longitude": "145.048395"
		    	},
		    	{
		    		"Campus": "Melbourne",
		    		"Location": "Agora Cinema",
		    		"Latitude": "-37.721022",
		    		"Longitude": "145.048395"
		    	},
		    	{
		    		"Campus": "Melbourne",
		    		"Location": "Agora Theatre",
		    		"Latitude": "-37.721022",
		    		"Longitude": "145.048395"
		    	},
		    	{
		    		"Campus": "Melbourne",
		    		"Location": "Agora Cinema",
		    		"Latitude": "-37.721022",
		    		"Longitude": "145.048395"
		    	},
		    	{
		    		"Campus": "Melbourne",
		    		"Location": "Agora Theatre",
		    		"Latitude": "-37.721022",
		    		"Longitude": "145.048395"
		    	},
		    	{
		    		"Campus": "Melbourne",
		    		"Location": "Agora Theatre",
		    		"Latitude": "-37.721022",
		    		"Longitude": "145.048395"
		    	},
		    	{
		    		"Campus": "Melbourne",
		    		"Location": "Agora Cinema",
		    		"Latitude": "-37.721022",
		    		"Longitude": "145.048395"
		    	},
		    	{
		    		"Campus": "Melbourne",
		    		"Location": "Agora Theatre",
		    		"Latitude": "-37.721022",
		    		"Longitude": "145.048395"
		    	},
		    	{
		    		"Campus": "Melbourne",
		    		"Location": "Agora Cinema",
		    		"Latitude": "-37.721022",
		    		"Longitude": "145.048395"
		    	},
		    	{
		    		"Campus": "Melbourne",
		    		"Location": "Agora Theatre",
		    		"Latitude": "-37.721022",
		    		"Longitude": "145.048395"
		    	},
		    	{
		    		"Campus": "Melbourne",
		    		"Location": "Agora Cinema",
		    		"Latitude": "-37.721022",
		    		"Longitude": "145.048395"
		    	},
		    	{
		    		"Campus": "Melbourne",
		    		"Location": "Agora Cinema",
		    		"Latitude": "-37.721022",
		    		"Longitude": "145.048395"
		    	},
		    	{
		    		"Campus": "Melbourne",
		    		"Location": "Agora Theatre",
		    		"Latitude": "-37.721022",
		    		"Longitude": "145.048395"
		    	},
		    	{
		    		"Campus": "Melbourne",
		    		"Location": "Agora Cinema",
		    		"Latitude": "-37.721022",
		    		"Longitude": "145.048395"
		    	},
		    	{
		    		"Campus": "Melbourne",
		    		"Location": "East Lecture Theatre 5 (ELT5)",
		    		"Latitude": "-37.720759",
		    		"Longitude": "145.049213"
		    	},
		    	{
		    		"Campus": "Melbourne",
		    		"Location": "East Lecture Theatre 4 (ELT4)",
		    		"Latitude": "-37.720759",
		    		"Longitude": "145.049213"
		    	},
		    	{
		    		"Campus": "Melbourne",
		    		"Location": "East Lecture Theatre 5 (ELT5)",
		    		"Latitude": "-37.720759",
		    		"Longitude": "145.049213"
		    	},
		    	{
		    		"Campus": "Melbourne",
		    		"Location": "East Lecture Theatre 4 (ELT4)",
		    		"Latitude": "-37.720759",
		    		"Longitude": "145.049213"
		    	},
		    	{
		    		"Campus": "Melbourne",
		    		"Location": "East Lecture Theatre 5 (ELT5)",
		    		"Latitude": "-37.720759",
		    		"Longitude": "145.049213"
		    	},
		    	{
		    		"Campus": "Melbourne",
		    		"Location": "East Lecture Theatre 4 (ELT4)",
		    		"Latitude": "-37.720759",
		    		"Longitude": "145.049213"
		    	},
		    	{
		    		"Campus": "Melbourne",
		    		"Location": "East Lecture Theatre 4 (ELT4)",
		    		"Latitude": "-37.720759",
		    		"Longitude": "145.049213"
		    	},
		    	{
		    		"Campus": "Melbourne",
		    		"Location": "East Lecture Theatre 5 (ELT5)",
		    		"Latitude": "-37.720759",
		    		"Longitude": "145.049213"
		    	},
		    	{
		    		"Campus": "Melbourne",
		    		"Location": "East Lecture Theatre 5 (ELT5)",
		    		"Latitude": "-37.720759",
		    		"Longitude": "145.049213"
		    	},
		    	{
		    		"Campus": "Melbourne",
		    		"Location": "East Lecture Theatre 3 (ELT3)",
		    		"Latitude": "-37.720759",
		    		"Longitude": "145.049213"
		    	},
		    	{
		    		"Campus": "Melbourne",
		    		"Location": "Economics Lecture Theatre (DWB214)",
		    		"Latitude": "-37.720351",
		    		"Longitude": "145.049604"
		    	},
		    	{
		    		"Campus": "Melbourne",
		    		"Location": "Board Room, Union Building (UB)",
		    		"Latitude": "-37.723075",
		    		"Longitude": "145.049610"
		    	},
		    	{
		    		"Campus": "Melbourne",
		    		"Location": "Board Room, Union Building (UB)",
		    		"Latitude": "-37.723075",
		    		"Longitude": "145.049610"
		    	},
		    	{
		    		"Campus": "Melbourne",
		    		"Location": "East Lecture Theatre 6 (ELT6)",
		    		"Latitude": "-37.720759",
		    		"Longitude": "145.049213"
		    	},
		    	{
		    		"Campus": "Melbourne",
		    		"Location": "East Lecture Theatre 6 (ELT6)",
		    		"Latitude": "-37.720759",
		    		"Longitude": "145.049213"
		    	},
		    	{
		    		"Campus": "Melbourne",
		    		"Location": "Board Room, Union Building (UB)",
		    		"Latitude": "-37.723075",
		    		"Longitude": "145.049610"
		    	},
		    	{
		    		"Campus": "Melbourne",
		    		"Location": "East Lecture Theatre 6 (ELT6)",
		    		"Latitude": "-37.720759",
		    		"Longitude": "145.049213"
		    	},
		    	{
		    		"Campus": "Melbourne",
		    		"Location": "Health Sciences 2, Room 222",
		    		"Latitude": "-37.719889",
		    		"Longitude": "145.045822"
		    	},
		    	{
		    		"Campus": "Melbourne",
		    		"Location": "West Lecture Theatre 1 (WLT1)",
		    		"Latitude": "-37.719515",
		    		"Longitude": "145.045769"
		    	},
		    	{
		    		"Campus": "Melbourne",
		    		"Location": "West Lecture Theatre 3 (WLT3)",
		    		"Latitude": "-37.719515",
		    		"Longitude": "145.045769"
		    	},
		    	{
		    		"Campus": "Melbourne",
		    		"Location": "West Lecture Theatre 2 (WLT2)",
		    		"Latitude": "-37.719515",
		    		"Longitude": "145.045769"
		    	},
		    	{
		    		"Campus": "Melbourne",
		    		"Location": "Health Sciences 2, Room 223",
		    		"Latitude": "-37.719889",
		    		"Longitude": "145.045822"
		    	},
		    	{
		    		"Campus": "Melbourne",
		    		"Location": "West Lecture Theatre 1 (WLT1)",
		    		"Latitude": "-37.719515",
		    		"Longitude": "145.045769"
		    	},
		    	{
		    		"Campus": "Melbourne",
		    		"Location": "Health Sciences 2, Room 224",
		    		"Latitude": "-37.719889",
		    		"Longitude": "145.045822"
		    	},
		    	{
		    		"Campus": "Melbourne",
		    		"Location": "West Lecture Theatre 2 (WLT2)",
		    		"Latitude": "-37.719515",
		    		"Longitude": "145.045769"
		    	},
		    	{
		    		"Campus": "Melbourne",
		    		"Location": "Health Sciences 2, Room 222",
		    		"Latitude": "-37.719889",
		    		"Longitude": "145.045822"
		    	},
		    	{
		    		"Campus": "Melbourne",
		    		"Location": "West Lecture Theatre 3 (WLT3)",
		    		"Latitude": "-37.719515",
		    		"Longitude": "145.045769"
		    	},
		    	{
		    		"Campus": "Melbourne",
		    		"Location": "Health Sciences 2, Room 222",
		    		"Latitude": "-37.719889",
		    		"Longitude": "145.045822"
		    	},
		    	{
		    		"Campus": "Melbourne",
		    		"Location": "Health Sciences 2, Room 224",
		    		"Latitude": "-37.719889",
		    		"Longitude": "145.045822"
		    	},
		    	{
		    		"Campus": "Melbourne",
		    		"Location": "West Lecture Theatre 3 (WLT3)",
		    		"Latitude": "-37.719515",
		    		"Longitude": "145.045769"
		    	},
		    	{
		    		"Campus": "Melbourne",
		    		"Location": "West Lecture Theatre 2 (WLT2)",
		    		"Latitude": "-37.719515",
		    		"Longitude": "145.045769"
		    	},
		    	{
		    		"Campus": "Melbourne",
		    		"Location": "West Lecture Theatre 1 (WLT1)",
		    		"Latitude": "-37.719515",
		    		"Longitude": "145.045769"
		    	},
		    	{
		    		"Campus": "Melbourne",
		    		"Location": "West Lecture Theatre 2 (WLT2)",
		    		"Latitude": "-37.719515",
		    		"Longitude": "145.045769"
		    	},
		    	{
		    		"Campus": "Melbourne",
		    		"Location": "West Lecture Theatre 3 (WLT3)",
		    		"Latitude": "-37.719515",
		    		"Longitude": "145.045769"
		    	},
		    	{
		    		"Campus": "Melbourne",
		    		"Location": "West Lecture Theatre 1 (WLT1)",
		    		"Latitude": "-37.719515",
		    		"Longitude": "145.045769"
		    	},
		    	{
		    		"Campus": "Melbourne",
		    		"Location": "Health Sciences 2, Room 222",
		    		"Latitude": "-37.719889",
		    		"Longitude": "145.045822"
		    	},
		    	{
		    		"Campus": "Melbourne",
		    		"Location": "West Lecture Theatre 1 (WLT1)",
		    		"Latitude": "-37.719515",
		    		"Longitude": "145.045769"
		    	},
		    	{
		    		"Campus": "Melbourne",
		    		"Location": "West Lecture Theatre 2 (WLT2)",
		    		"Latitude": "-37.719515",
		    		"Longitude": "145.045769"
		    	},
		    	{
		    		"Campus": "Melbourne",
		    		"Location": "Health Sciences 2, Room 222",
		    		"Latitude": "-37.719889",
		    		"Longitude": "145.045822"
		    	},
		    	{
		    		"Campus": "Melbourne",
		    		"Location": "Health Sciences 2, Room 223",
		    		"Latitude": "-37.719889",
		    		"Longitude": "145.045822"
		    	},
		    	{
		    		"Campus": "Melbourne",
		    		"Location": "West Lecture Theatre 3 (WLT3)",
		    		"Latitude": "-37.719515",
		    		"Longitude": "145.045769"
		    	},
		    	{
		    		"Campus": "Melbourne",
		    		"Location": "Health Sciences 2, Room 224",
		    		"Latitude": "-37.719889",
		    		"Longitude": "145.045822"
		    	},
		    	{
		    		"Campus": "Melbourne",
		    		"Location": "Health Sciences 2, Room 224",
		    		"Latitude": "-37.719889",
		    		"Longitude": "145.045822"
		    	},
		    	{
		    		"Campus": "Melbourne",
		    		"Location": "West Lecture Theatre 1 (WLT1)",
		    		"Latitude": "-37.719515",
		    		"Longitude": "145.045769"
		    	},
		    	{
		    		"Campus": "Melbourne",
		    		"Location": "Health Sciences 2, Room 222",
		    		"Latitude": "-37.719889",
		    		"Longitude": "145.045822"
		    	},
		    	{
		    		"Campus": "Melbourne",
		    		"Location": "West Lecture Theatre 2 (WLT2)",
		    		"Latitude": "-37.719515",
		    		"Longitude": "145.045769"
		    	},
		    	{
		    		"Campus": "Melbourne",
		    		"Location": "West Lecture Theatre 3 (WLT3)",
		    		"Latitude": "-37.719515",
		    		"Longitude": "145.045769"
		    	},
		    	{
		    		"Campus": "Melbourne",
		    		"Location": "LIMS Lecture Theatre",
		    		"Latitude": "-37.719885",
		    		"Longitude": "145.046911"
		    	},
		    	{
		    		"Campus": "Melbourne",
		    		"Location": "Hooper Lecture Theatre (H)",
		    		"Latitude": "-37.721658",
		    		"Longitude": "145.047056"
		    	},
		    	{
		    		"Campus": "Melbourne",
		    		"Location": "Hooper Lecture Theatre (H)",
		    		"Latitude": "-37.721658",
		    		"Longitude": "145.047056"
		    	},
		    	{
		    		"Campus": "Melbourne",
		    		"Location": "LIMS Lecture Theatre",
		    		"Latitude": "-37.719885",
		    		"Longitude": "145.046911"
		    	},
		    	{
		    		"Campus": "Melbourne",
		    		"Location": "Hooper Lecture Theatre (H)",
		    		"Latitude": "-37.721658",
		    		"Longitude": "145.047056"
		    	},
		    	{
		    		"Campus": "Melbourne",
		    		"Location": "LIMS Lecture Theatre",
		    		"Latitude": "-37.719885",
		    		"Longitude": "145.046911"
		    	},
		    	{
		    		"Campus": "Melbourne",
		    		"Location": "Szental Lecture Theatre (SZ)",
		    		"Latitude": "-37.721658",
		    		"Longitude": "145.047056"
		    	},
		    	{
		    		"Campus": "Melbourne",
		    		"Location": "Szental Lecture Theatre (SZ)",
		    		"Latitude": "-37.721658",
		    		"Longitude": "145.047056"
		    	},
		    	{
		    		"Campus": "Melbourne",
		    		"Location": "LIMS Lecture Theatre",
		    		"Latitude": "-37.719885",
		    		"Longitude": "145.046911"
		    	},
		    	{
		    		"Campus": "Melbourne",
		    		"Location": "LIMS Lecture Theatre",
		    		"Latitude": "-37.719885",
		    		"Longitude": "145.046911"
		    	},
		    	{
		    		"Campus": "Melbourne",
		    		"Location": "Szental Lecture Theatre (SZ)",
		    		"Latitude": "-37.721658",
		    		"Longitude": "145.047056"
		    	},
		    	{
		    		"Campus": "Melbourne",
		    		"Location": "Hooper Lecture Theatre (H)",
		    		"Latitude": "-37.721658",
		    		"Longitude": "145.047056"
		    	},
		    	{
		    		"Campus": "Melbourne",
		    		"Location": "LIMS Lecture Theatre",
		    		"Latitude": "-37.719885",
		    		"Longitude": "145.046911"
		    	},
		    	{
		    		"Campus": "Melbourne",
		    		"Location": "Hooper Lecture Theatre (H)",
		    		"Latitude": "-37.721658",
		    		"Longitude": "145.047056"
		    	},
		    	{
		    		"Campus": "Melbourne",
		    		"Location": "Szental Lecture Theatre (SZ)",
		    		"Latitude": "-37.721658",
		    		"Longitude": "145.047056"
		    	},
		    	{
		    		"Campus": "Melbourne",
		    		"Location": "LIMS Lecture Theatre",
		    		"Latitude": "-37.719885",
		    		"Longitude": "145.046911"
		    	},
		    	{
		    		"Campus": "Melbourne",
		    		"Location": "Szental Lecture Theatre (SZ)",
		    		"Latitude": "-37.721658",
		    		"Longitude": "145.047056"
		    	},
		    	{
		    		"Campus": "Melbourne",
		    		"Location": "East Lecture Theatre 2 (ELT2)",
		    		"Latitude": "-37.720759",
		    		"Longitude": "145.049213"
		    	},
		    	{
		    		"Campus": "Melbourne",
		    		"Location": "Economics Lecture Theatre (DWB214)",
		    		"Latitude": "-37.720351",
		    		"Longitude": "145.049604"
		    	},
		    	{
		    		"Campus": "Melbourne",
		    		"Location": "East Lecture Theatre 1 (ELT1)",
		    		"Latitude": "-37.720759",
		    		"Longitude": "145.049213"
		    	},
		    	{
		    		"Campus": "Melbourne",
		    		"Location": "East Lecture Theatre 1 (ELT1)",
		    		"Latitude": "-37.720759",
		    		"Longitude": "145.049213"
		    	},
		    	{
		    		"Campus": "Melbourne",
		    		"Location": "East Lecture Theatre 2 (ELT2)",
		    		"Latitude": "-37.720759",
		    		"Longitude": "145.049213"
		    	},
		    	{
		    		"Campus": "Melbourne",
		    		"Location": "East Lecture Theatre 3 (ELT3)",
		    		"Latitude": "-37.720759",
		    		"Longitude": "145.049213"
		    	},
		    	{
		    		"Campus": "Melbourne",
		    		"Location": "East Lecture Theatre 1 (ELT1)",
		    		"Latitude": "-37.720759",
		    		"Longitude": "145.049213"
		    	},
		    	{
		    		"Campus": "Melbourne",
		    		"Location": "East Lecture Theatre 3 (ELT3)",
		    		"Latitude": "-37.720759",
		    		"Longitude": "145.049213"
		    	},
		    	{
		    		"Campus": "Melbourne",
		    		"Location": "East Lecture Theatre 2 (ELT2)",
		    		"Latitude": "-37.720759",
		    		"Longitude": "145.049213"
		    	},
		    	{
		    		"Campus": "Melbourne",
		    		"Location": "East Lecture Theatre 1 (ELT1)",
		    		"Latitude": "-37.720759",
		    		"Longitude": "145.049213"
		    	},
		    	{
		    		"Campus": "Melbourne",
		    		"Location": "East Lecture Theatre 3 (ELT3)",
		    		"Latitude": "-37.720759",
		    		"Longitude": "145.049213"
		    	},
		    	{
		    		"Campus": "Melbourne",
		    		"Location": "East Lecture Theatre 2 (ELT2)",
		    		"Latitude": "-37.720759",
		    		"Longitude": "145.049213"
		    	},
		    	{
		    		"Campus": "Melbourne",
		    		"Location": "Economics Lecture Theatre (DWB214)",
		    		"Latitude": "-37.720351",
		    		"Longitude": "145.049604"
		    	},
		    	{
		    		"Campus": "Melbourne",
		    		"Location": "East Lecture Theatre 3 (ELT3)",
		    		"Latitude": "-37.720759",
		    		"Longitude": "145.049213"
		    	},
		    	{
		    		"Campus": "Melbourne",
		    		"Location": "East Lecture Theatre 2 (ELT2)",
		    		"Latitude": "-37.720759",
		    		"Longitude": "145.049213"
		    	},
		    	{
		    		"Campus": "Melbourne",
		    		"Location": "Szental Lecture Theatre (SZ)",
		    		"Latitude": "-37.721658",
		    		"Longitude": "145.047056"
		    	},
		    	{
		    		"Campus": "Melbourne",
		    		"Location": "Hooper Lecture Theatre (H)",
		    		"Latitude": "-37.721658",
		    		"Longitude": "145.047056"
		    	},
		    	{
		    		"Campus": "Melbourne",
		    		"Location": "Hooper Lecture Theatre (H)",
		    		"Latitude": "-37.721658",
		    		"Longitude": "145.047056"
		    	},
		    	{
		    		"Campus": "Melbourne",
		    		"Location": "Hooper Lecture Theatre (H)",
		    		"Latitude": "-37.721658",
		    		"Longitude": "145.047056"
		    	},
		    	{
		    		"Campus": "Mildura",
		    		"Location": "Seminar Room 2",
		    		"Latitude": "-34.205955",
		    		"Longitude": "142.166685"
		    	},
		    	{
		    		"Campus": "Mildura",
		    		"Location": "Lecture Theatre",
		    		"Latitude": "-34.205955",
		    		"Longitude": "142.166685"
		    	},
		    	{
		    		"Campus": "Mildura",
		    		"Location": "Lecture Theatre",
		    		"Latitude": "-34.205955",
		    		"Longitude": "142.166685"
		    	},
		    	{
		    		"Campus": "Mildura",
		    		"Location": "Seminar Room 2",
		    		"Latitude": "-34.205955",
		    		"Longitude": "142.166685"
		    	},
		    	{
		    		"Campus": "Mildura",
		    		"Location": "Lecture Theatre",
		    		"Latitude": "-34.205955",
		    		"Longitude": "142.166685"
		    	},
		    	{
		    		"Campus": "Mildura",
		    		"Location": "Seminar Room 2",
		    		"Latitude": "-34.205955",
		    		"Longitude": "142.166685"
		    	},
		    	{
		    		"Campus": "Mildura",
		    		"Location": "Seminar Room 2",
		    		"Latitude": "-34.205955",
		    		"Longitude": "142.166685"
		    	},
		    	{
		    		"Campus": "Mildura",
		    		"Location": "Lecture Theatre",
		    		"Latitude": "-34.205955",
		    		"Longitude": "142.166685"
		    	},
		    	{
		    		"Campus": "Mildura",
		    		"Location": "Seminar Room 2",
		    		"Latitude": "-34.205955",
		    		"Longitude": "142.166685"
		    	},
		    	{
		    		"Campus": "Mildura",
		    		"Location": "Seminar Room 2",
		    		"Latitude": "-34.205955",
		    		"Longitude": "142.166685"
		    	},
		    	{
		    		"Campus": "Mildura",
		    		"Location": "Seminar Room 2",
		    		"Latitude": "-34.205955",
		    		"Longitude": "142.166685"
		    	},
		    	{
		    		"Campus": "Mildura",
		    		"Location": "Seminar Room 2",
		    		"Latitude": "-34.205955",
		    		"Longitude": "142.166685"
		    	},
		    	{
		    		"Campus": "Mildura",
		    		"Location": "Lecture Theatre",
		    		"Latitude": "-34.205955",
		    		"Longitude": "142.166685"
		    	},
		    	{
		    		"Campus": "Mildura",
		    		"Location": "Lecture Theatre",
		    		"Latitude": "-34.205955",
		    		"Longitude": "142.166685"
		    	},
		    	{
		    		"Campus": "Mildura",
		    		"Location": "Lecture Theatre",
		    		"Latitude": "-34.205955",
		    		"Longitude": "142.166685"
		    	},
		    	{
		    		"Campus": "Mildura",
		    		"Location": "Lecture Theatre",
		    		"Latitude": "-34.205955",
		    		"Longitude": "142.166685"
		    	},
		    	{
		    		"Campus": "Mildura",
		    		"Location": "Lecture Theatre",
		    		"Latitude": "-34.205955",
		    		"Longitude": "142.166685"
		    	},
		    	{
		    		"Campus": "Mildura",
		    		"Location": "Seminar Room 2",
		    		"Latitude": "-34.205955",
		    		"Longitude": "142.166685"
		    	},
		    	{
		    		"Campus": "Mildura",
		    		"Location": "Seminar Room 2",
		    		"Latitude": "-34.205955",
		    		"Longitude": "142.166685"
		    	},
		    	{
		    		"Campus": "Shepparton",
		    		"Location": "Room 112",
		    		"Latitude": "-36.380320",
		    		"Longitude": "145.406349"
		    	},
		    	
		    	
		    	{
		    		"Location": "Teaching Space",
		    		"Campus": "Shepparton",
		    		"Latitude": "-36.380320",
		    		"Longitude": "145.406349"
		    	},
		    	{
		    		"Location": "Room 111",
		    		"Campus": "Shepparton",
		    		"Latitude": "-36.380320",
		    		"Longitude": "145.406349"
		    	},
		    	{
		    		"Location": "Seminar Room 2",
		    		"Campus": "Mildura",
		    		"Latitude": "-34.205955",
		    		"Longitude": "142.166685"
		    	},
		    	{
		    		"Location": "Lecture Theatre",
		    		"Campus": "Mildura",
		    		"Latitude": "-34.205955",
		    		"Longitude": "142.166685"
		    	},
		    	{
		    		"Location": "Business, Room 1.30",
		    		"Campus": "Bendigo",
		    		"Latitude": "-36.779816",
		    		"Longitude": "144.302287"
		    	},
		    	{
		    		"Location": "Education (Room 2.39)",
		    		"Campus": "Bendigo",
		    		"Latitude": "-36.778939",
		    		"Longitude": "144.297738"
		    	},
		    	{
		    		"Location": "HHS 2 251",
		    		"Campus": "Bendigo",
		    		"Latitude": "-36.779777",
		    		"Longitude": "144.298924"
		    	},
		    	{
		    		"Location": "McKay Lecture Theatre",
		    		"Campus": "Bendigo",
		    		"Latitude": "-36.779360",
		    		"Longitude": "144.299508"
		    	},
		    	{
		    		"Location": "Ironbark Centre (Room 1.02)",
		    		"Campus": "Bendigo",
		    		"Latitude": "-36.780465",
		    		"Longitude": "144.301102"
		    	},
		    	{
		    		"Location": "Business, Room 2.30",
		    		"Campus": "Bendigo",
		    		"Latitude": "-36.779824",
		    		"Longitude": "144.302239"
		    	},
		    	{
		    		"Location": "Circular Lecture Theatre",
		    		"Campus": "Bendigo",
		    		"Latitude": "-36.779038",
		    		"Longitude": "144.300224"
		    	},
		    	{
		    		"Location": "Visual Arts, Room 2.17",
		    		"Campus": "Bendigo",
		    		"Latitude": "-36.779726",
		    		"Longitude": "144.299701"
		    	},
		    	{
		    		"Location": "Eng 206",
		    		"Campus": "Bendigo",
		    		"Latitude": "-36.778939",
		    		"Longitude": "144.297738"
		    	},
		    	{
		    		"Location": "Education (Room 2.22)",
		    		"Campus": "Bendigo",
		    		"Latitude": "-36.780056",
		    		"Longitude": "144.301000"
		    	},
		    	{
		    		"Location": "Eng Room 2.14",
		    		"Campus": "Bendigo",
		    		"Latitude": "-36.778939",
		    		"Longitude": "144.297738"
		    	},
		    	{
		    		"Location": "Arts, Room 3.10",
		    		"Campus": "Bendigo",
		    		"Latitude": "-36.779614",
		    		"Longitude": "144.300538"
		    	},
		    	{
		    		"Location": "Graphic Design Lab",
		    		"Campus": "Bendigo",
		    		"Latitude": "-36.779279",
		    		"Longitude": "144.299948"
		    	},
		    	{
		    		"Location": "Arts, Room 3.03",
		    		"Campus": "Bendigo",
		    		"Latitude": "-36.779614",
		    		"Longitude": "144.300538"
		    	},
		    	{
		    		"Location": "Building 3, Room 3101",
		    		"Campus": "Albury-Wodonga",
		    		"Latitude": "-36.111084",
		    		"Longitude": "146.849930"
		    	},
		    	{
		    		"Location": "Building 6, Room 6101",
		    		"Campus": "Albury-Wodonga",
		    		"Latitude": "-36.111573",
		    		"Longitude": "146.849023"
		    	},
		    	{
		    		"Location": "Building 4, Room 4101",
		    		"Campus": "Albury-Wodonga",
		    		"Latitude": "-36.111573",
		    		"Longitude": "146.849023"
		    	},
		    	{
		    		"Location": "Building 3, Room 3107",
		    		"Campus": "Albury-Wodonga",
		    		"Latitude": "-36.111084",
		    		"Longitude": "146.849930"
		    	},
		    	{
		    		"Location": "Building 3, Room 3105",
		    		"Campus": "Albury-Wodonga",
		    		"Latitude": "-36.111084",
		    		"Longitude": "146.849930"
		    	},
		    	{
		    		"Location": "Building 3A",
		    		"Campus": "Albury-Wodonga",
		    		"Latitude": "-36.111084",
		    		"Longitude": "146.849930"
		    	}]